,개방자치단체코드,관리번호,영업상태명,소재지면적,소재지우편번호,지번주소,도로명주소,사업장명,업태구분명,좌표정보(X),좌표정보(Y),경도,위도
0,3010000,3010000-201-1960-00058,영업/정상,165,100340,서울특별시 중구 산림동 84-4번지 ,서울특별시 중구 창경궁로5가길 27-4 (산림동),화성여관,여관업,199652.8111,451759.4718,126.993968,37.56812055
1,3010000,3010000-201-1960-00061,영업/정상,75,100874,서울특별시 중구 회현동1가 185-2,서울특별시 중구 퇴계로8길 2-1 (회현동1가),명동 킹콩호텔(KingKong Hotel),여관업,198152.6713,450753.4848,126.9769903,37.55905483
2,3010000,3010000-201-1960-00184,영업/정상,280.77,100051,서울특별시 중구 회현동1가 70-0번지 ,서울특별시 중구 퇴계로10길 20-3 (회현동1가),미도호텔,여관업,198214.7838,450689.3541,126.9776934,37.55847715
3,3010000,3010000-201-1963-00189,영업/정상,4,412,100011,서울특별시 중구 충무로1가 23-1번지 ,4536,00:59:59,198543.6447,451049.5806,126.9814146,37.56172335
4,3010000,3010000-201-1963-00213,영업/정상,4,274.81,100845,서울특별시 중구 을지로2가 199-33번지 ,4534,00:59:59,198492.8019,451427.349,126.9808384,37.56512692
5,3010000,3010000-201-1964-00103,영업/정상,72.9,100869,서울특별시 중구 황학동 754-0번지 3통5반 ,,중앙여인숙,여인숙업,201540.8996,451623.1039,127.0153393,37.5668908
6,3010000,3010000-201-1965-00143,영업/정상,205,100041,서울특별시 중구 남산동1가 12-2,서울특별시 중구 퇴계로18길 30 (남산동1가),동도모텔,여관업,198597.2451,450804.502,126.9820218,37.5595153
7,3010000,3010000-201-1965-00145,영업/정상,97.5,100-350,서울특별시 중구 입정동 167-0,서울특별시 중구 충무로 68-9 (입정동),옥천여관,여관업,199306.7514,451681.6645,126.9900509,37.5674193
8,3010000,3010000-201-1965-00151,영업/정상,218.97,100300,서울특별시 중구 초동 51-5번지 ,서울특별시 중구 마른내로2길 15-16 (초동),명보여관,여관업,199263.2013,451237.7971,126.9895585,37.56342007
9,3010000,3010000-201-1966-00083,영업/정상,309.74,100834,서울특별시 중구 신당동 374-10번지 ,서울특별시 중구 다산로 131 (신당동),프린스,여관업,200885.2988,450378.9843,127.0079172,37.55568224
10,3010000,3010000-201-1966-00146,영업/정상,138.6,100197,서울특별시 중구 을지로7가 18-9번지 ,서울특별시 중구 퇴계로 343-12 (을지로7가),백금여관,여관업,200817.2579,451412.5276,127.0071482,37.56499441
11,3010000,3010000-201-1966-00218,영업/정상,3,146,100053,서울특별시 중구 회현동3가 10번지 ,4631,00:59:59,198491.235,450895.8551,126.9808218,37.56033821
12,3010000,3010000-201-1966-00222,영업/정상,265.2,100260,서울특별시 중구 남학동 14-1 1~3층,서울특별시 중구 퇴계로28길 6-3 (남학동,4627,00:05:00,199153.0651,450932.4883,126.9883123,37.56066917
13,3010000,3010000-201-1967-00064,영업/정상,80.59,100440,서울특별시 중구 황학동 1214-0번지 ,서울특별시 중구 마장로14길 2 (황학동),인득여관,여관업,201803.0656,451745.1131,127.018307,37.56798963
14,3010000,3010000-201-1968-00106,영업/정상,93.06,100873,서울특별시 중구 회현동1가 127-2번지 ,서울특별시 중구 퇴계로12길 45-1 (회현동1가),동원여관,여관업,198314.2907,450598.2972,126.9788198,37.55765693
15,3010000,3010000-201-1968-00108,영업/정상,164.33,100043,서울특별시 중구 남산동3가 17번지 ,서울특별시 중구 퇴계로24길 12 (남산동3가),명동게스트하우스 꼬모,여관업,198800.1267,450904.6829,126.9843178,37.56041822
16,3010000,3010000-201-1968-00220,영업/정상,7,691,100012,서울특별시 중구 충무로2가 61-3 ,4537,00:40:00,198866.3649,451021.051,126.9850673,37.56146678
17,3010000,3010000-201-1969-00208,영업/정상,1,36,100101,서울특별시 중구 태평로1가 29-1번지 ,4520,00:59:59,198000.9672,451745.0255,126.9752705,37.56798818
18,3010000,3010000-201-1969-00216,영업/정상,4,762.61,100042,서울특별시 중구 남산동2가 1-1번지 ,4629,00:59:59,198717.8245,450932.9648,126.9833862,37.56067293
19,3010000,3010000-201-1970-00085,영업/정상,513.46,100861,서울특별시 중구 충무로2가 51-10,서울특별시 중구 수표로 3-8 (충무로2가),KW호스텔 명동,여관업,199045.5718,451036.1792,126.9870955,37.5616033
20,3010000,3010000-201-1970-00132,영업/정상,93,100450,서울특별시 중구 신당동 281-34번지 ,서울특별시 중구 다산로42나길 53-1 (신당동),S(에스)모텔,여관업,201481.7732,451082.3126,127.014669,37.56201843
21,3010000,3010000-201-1970-00169,영업/정상,162.63,100869,서울특별시 중구 황학동 714번지 ,서울특별시 중구 퇴계로 439-4 (황학동),마이더스여관,여관업,201766.3545,451514.1944,127.0178909,37.56590915
22,3010000,3010000-201-1970-00188,영업/정상,2,478,100070,서울특별시 중구 소공동 87 ,4533,00:40:00,198172.1511,451350.9692,126.9772092,37.56443814
23,3010000,3010000-201-1970-00203,영업/정상,11,53,100282,서울특별시 중구 인현동2가 73-1 외2 ,외2),U,199550.5063,451392.2197,126.9928102,37.5648116
24,3010000,3010000-201-1970-00219,영업/정상,2,450.55,100873,서울특별시 중구 회현동1가 65번지 ,4632,00:59:59,198249.7588,450711.483,126.9780892,37.55867659
25,3010000,3010000-201-1970-00226,영업/정상,92,100819,서울특별시 중구 신당동 121-21 ,서울특별시 중구 퇴계로80길 13-9 (신당동),은성여관,여관업,201557.6538,451387.552,127.0155284,37.56476848
26,3010000,3010000-201-1971-00077,영업/정상,377.53,100873,서울특별시 중구 회현동1가 89-2,서울특별시 중구 퇴계로10길 20-8,4634,00:04:00,198189.5766,450677.4401,126.9774081,37.55836975
27,3010000,3010000-201-1971-00175,영업/정상,271.44,100-450,서울특별시 중구 신당동 366-125,서울특별시 중구 다산로 58 (신당동),세포장모텔,여관업,200615.9462,449705.529,127.0048683,37.54961467
28,3010000,3010000-201-1972-00204,영업/정상,11,271,100101,서울특별시 중구 태평로1가 61-1 ,4519,00:40:00,197870.4224,451786.4126,126.9737927,37.56836077
29,3010000,3010000-201-1973-00160,영업/정상,577,100051,서울특별시 중구 회현동1가 133-1번지 ,서울특별시 중구 소공로3길 42 (회현동1가),힐하우스 호텔,일반호텔,198336.7335,450504.1042,126.979074,37.5568083
30,3010000,3010000-201-1973-00166,영업/정상,151.84,100273,서울특별시 중구 필동3가 5-1번지 5층 ,서울특별시 중구 서애로 22-1 (필동3가,4624,00:59:59,199681.3973,450929.4385,126.994292,37.56064206
31,3010000,3010000-201-1973-00178,영업/정상,198.55,100411,서울특별시 중구 광희동1가 155-0번지 ,서울특별시 중구 을지로44길 24-4 (광희동1가),에비뉴모텔,여관업,200480.794,451428.2995,127.0033399,37.56513673
32,3010000,3010000-201-1973-00206,영업/정상,10,571,100191,서울특별시 중구 을지로1가 188-3번지 ,4533,00:59:59,198113.3707,451483.3,126.9765435,37.5656303
33,3010000,3010000-201-1973-00224,영업/정상,103.08,100808,서울특별시 중구 만리동1가 53-16번지 ,서울특별시 중구 만리재로35길 46-14 (만리동1가),호수모텔,여관업,197087.4804,450515.2054,126.9649356,37.55690513
34,3010000,3010000-201-1974-00162,영업/정상,294.4,100-330,서울특별시 중구 주교동 106-2,서울특별시 중구 을지로27길 31-2 (주교동),트래블러스 A 코리아 호스텔,여관업,199833.6667,451787.6268,126.9960151,37.56837429
35,3010000,3010000-201-1974-00217,영업/정상,1,224,100195,서울특별시 중구 을지로5가 133-1번지 ,4561,00:59:59,200225.9831,451511.2628,127.0004557,37.5658843
36,3010000,3010000-201-1974-00225,영업/정상,195.22,100300,서울특별시 중구 초동 52-1번지 ,서울특별시 중구 마른내로2길 15-10 (초동),럭키장여관,여관업,199254.839,451254.7186,126.9894638,37.56357252
37,3010000,3010000-201-1975-00138,영업/정상,164.33,100080,서울특별시 중구 북창동 65-1번지 ,서울특별시 중구 세종대로14길 22-2 (북창동),대우모텔,여관업,197976.8515,451162.428,126.9749992,37.56273898
38,3010000,3010000-201-1975-00209,영업/정상,3,776,100042,서울특별시 중구 남산동2가 31-1번지 ,4631,00:59:59,198644.069,450827.8618,126.9825517,37.55972585
39,3010000,3010000-201-1976-00049,영업/정상,324.9,100360,서울특별시 중구 중림동 334-2번지 ,서울특별시 중구 만리재로35길 46-3 (중림동),대영장여관,여관업,197102.7608,450548.2043,126.9651084,37.5572025
40,3010000,3010000-201-1976-00098,영업/정상,196.94,100870,서울특별시 중구 황학동 840번지 ,서울특별시 중구 마장로18길 38 (황학동),대림,여관업,201959.4958,451546.2653,127.0200772,37.56619773
41,3010000,3010000-201-1976-00196,영업/정상,274.96,100440,서울특별시 중구 황학동 2504-0 ,서울특별시 중구 난계로11길 13 (황학동),크리스티,여관업,201933.9887,451520.3697,127.0197884,37.56596447
42,3010000,3010000-201-1976-00207,영업/정상,14,97,100864,서울특별시 중구 태평로2가 23 ,4525,00:40:00,197979.0212,451376.7834,126.9750232,37.56467031
43,3010000,3010000-201-1979-00124,영업/정상,111.84,100151,서울특별시 중구 충정로1가 57-0번지 ,서울특별시 중구 새문안로 28-1 (충정로1가),모텔 비,여관업,197185.1249,451712.2603,126.966036,37.56769078
44,3010000,3010000-201-1981-00057,영업/정상,352.77,100411,서울특별시 중구 광희동1가 187-2 ,서울특별시 중구 을지로44길 23 (광희동1가),필스테이 동대문,여관업,200511.77,451411.7254,127.0036905,37.56498738
45,3010000,3010000-201-1981-00125,영업/정상,161.76,100095,서울특별시 중구 남대문로5가 217-0번지 ,서울특별시 중구 세종대로2길 11 (남대문로5가),삼정여관,여관업,197650.5365,450594.258,126.9713077,37.55761904
46,3010000,3010000-201-1981-00179,영업/정상,769.26,100014,서울특별시 중구 충무로4가 155-2번지 ,서울특별시 중구 퇴계로37길 22 (충무로4가),CF,여관업,199374.9445,451101.6226,126.9908234,37.56219324
47,3010000,3010000-201-1981-00199,영업/정상,370.96,100196,서울특별시 중구 을지로6가 18-41번지 ,서울특별시 중구 을지로41길 8 (을지로6가),허브모텔,여관업,200486.7969,451608.3303,127.0034079,37.56675878
48,3010000,3010000-201-1982-00201,영업/정상,295,100871,서울특별시 중구 황학동 2513,서울특별시 중구 퇴계로 449-17 (황학동),크리스티2,여관업,201914.0679,451528.8264,127.0195629,37.5660407
49,3010000,3010000-201-1983-00062,영업/정상,240.36,100080,서울특별시 중구 북창동 94-8번지 ,서울특별시 중구 남대문로1길 26-11 (북창동),(주)디자이너스컴퍼니,여관업,197984.7399,451118.486,126.9750886,37.56234309
50,3010000,3010000-201-1983-00185,영업/정상,13,559.88,100392,서울특별시 중구 장충동2가 186-54 ,4618,00:40:00,200141.9985,450922.2668,126.9995051,37.56057752
51,3010000,3010000-201-1983-00194,영업/정상,611.37,100450,서울특별시 중구 신당동 381-8번지 ,서울특별시 중구 동호로 196 (신당동),J모텔,여관업,200846.8378,450376.3221,127.0074819,37.55565828
52,3010000,3010000-201-1983-00205,영업/정상,7,975.29,100857,서울특별시 중구 장충동2가 산 5-5번지 ,4605,00:59:59,200193.2324,449809.7447,127.0000847,37.5505538
53,3010000,3010000-201-1984-00210,영업/정상,4,250,100021,서울특별시 중구 명동1가 6-0번지 ,4538,00:59:59,198662.0732,451337.2063,126.9827545,37.56431501
54,3010000,3010000-201-1986-00067,영업/정상,157.37,100411,서울특별시 중구 광희동1가 134-0번지 ,서울특별시 중구 을지로42길 7 (광희동1가),구미장여관,여관업,200450.1943,451505.023,127.0029935,37.56582801
55,3010000,3010000-201-1987-00107,영업/정상,246.9,100440,서울특별시 중구 황학동 2526-0번지 ,서울특별시 중구 난계로11길 33 (황학동),동문장여관,여관업,201862.5288,451586.6035,127.0189797,37.56656137
56,3010000,3010000-201-1987-00151,영업/정상,330,100-012,서울특별시 중구 충무로2가 50-6,서울특별시 중구 삼일대로4길 9 (충무로2가),명동 타임 호스텔(Myeong Dong Time Hostel),여관업,199023.9675,451105.4746,126.9868509,37.56222762
57,3010000,3010000-201-1988-00134,영업/정상,888,100880,서울특별시 중구 흥인동 108 ,서울특별시 중구 다산로 259 (흥인동),플러스호텔,여관업,201335.157,451538.2558,127.0130103,37.56612664
58,3010000,3010000-201-1988-00187,영업/정상,48165,100-070,서울특별시 중구 소공동 1,서울특별시 중구 을지로 30 (소공동),(주)호텔롯데,관광호텔,198259.6536,451392.1982,126.9781995,37.56480978
59,3010000,3010000-201-1989-00048,영업/정상,915.24,100846,서울특별시 중구 을지로3가 335-2 ,서울특별시 중구 충무로5길 22 (을지로3가),미오디자인레지던스(MMMIO),여관업,199190.8739,451467.8974,126.9887396,37.56549318
60,3010000,3010000-201-1990-00136,영업/정상,432.32,100873,서울특별시 중구 회현동1가 130-1,서울특별시 중구 퇴계로12길 51 (회현동1가),호텔 경동,여관업,198315.5945,450545.564,126.9788347,37.55718181
61,3010000,3010000-201-1997-00034,영업/정상,30,100823,서울특별시 중구 신당동 241-124번지 2,3층 ,2,2017-11-29 09:13:00,201205.3501,451273.6619,127.0115407,37.56374285
62,3010000,3010000-201-1998-00050,영업/정상,396,100863,서울특별시 중구 충무로4가 22,서울특별시 중구 충무로2길 27 (충무로4가),충무모텔,여관업,199463.5348,451139.1606,126.991826,37.56253152
63,3010000,3010000-201-1999-00221,영업/정상,591.68,100411,서울특별시 중구 광희동1가 263-2번지 ,서울특별시 중구 마른내로 150 (광희동1가),신아모텔,여관업,200330.9741,451373.1594,127.0016441,37.56463998
64,3010000,3010000-201-1999-00229,영업/정상,114.31,100806,서울특별시 중구 남창동 232-2번지 ,,공진여인숙,여인숙업,197862.6532,450519.2664,126.9737086,37.5569439
65,3010000,3010000-201-1999-00231,영업/정상,337.79,100884,서울특별시 중구 신당동 308-5 ,서울특별시 중구 다산로27길 6-10 (신당동),야코리아 게스트하우스,여관업,201086.9288,450833.8818,127.0101997,37.55978061
66,3010000,3010000-201-2000-00231,영업/정상,297.39,100869,서울특별시 중구 황학동 375-0번지 ,서울특별시 중구 퇴계로83길 22-16 (황학동),은성장여관,여관업,201640.033,451578.0159,127.0164613,37.5664844
67,3010000,3010000-201-2000-00232,영업/정상,800,100-851,서울특별시 중구 을지로6가 18-51,서울특별시 중구 을지로41길 22 (을지로6가),호텔 스테이인(HOTEL STAY IN),일반호텔,200492.7022,451643.8659,127.0034748,37.56707895
68,3010000,3010000-201-2000-00240,영업/정상,312.04,100806,서울특별시 중구 남창동 205-125 ,서울특별시 중구 퇴계로2길 15-3 (남창동),머스트스테이 호텔,여관업,197954.0911,450515.8298,126.9747435,37.55691315
69,3010000,3010000-201-2000-00241,영업/정상,151.8,100824,서울특별시 중구 신당동 292-127번지 ,서울특별시 중구 다산로 215 (신당동),청구 리빙텔,여인숙업,201242.6814,451132.9831,127.011963,37.5624753
70,3010000,3010000-201-2000-00242,영업/정상,281,100847,서울특별시 중구 을지로3가 291-45번지 ,서울특별시 중구 충무로 54-3 (을지로3가),트립스테이 명동,여관업,199321.5604,451526.9013,126.9902187,37.56602491
71,3010000,3010000-201-2000-00243,영업/정상,206.05,100855,서울특별시 중구 장충동2가 69번지 ,서울특별시 중구 퇴계로56가길 7 (장충동2가),신도여관,여관업,200388.0396,451045.3006,127.0022898,37.56168599
72,3010000,3010000-201-2000-00244,영업/정상,40,100855,서울특별시 중구 장충동2가 38-1번지 ,서울특별시 중구 동호로30길 33 (장충동2가),웰빙텔,여관업,200360.9717,450990.2077,127.0019834,37.56118961
73,3010000,3010000-201-2001-00003,영업/정상,186.01,100411,서울특별시 중구 광희동1가 153번지 ,서울특별시 중구 을지로44길 24-6 (광희동1가),왕도여관,여관업,200468.6485,451445.1593,127.0032024,37.56528864
74,3010000,3010000-201-2001-00004,영업/정상,245.95,100420,서울특별시 중구 무학동 59-2번지 ,서울특별시 중구 퇴계로74길 25 (무학동),탑모텔,여관업,201219.1739,451303.6999,127.0116972,37.56401347
75,3010000,3010000-201-2001-00006,영업/정상,60,100411,서울특별시 중구 광희동1가 112-3번지 ,서울특별시 중구 을지로40길 21-38 (광희동1가),정온여관,여관업,200418.3015,451456.4775,127.0026325,37.56539063
76,3010000,3010000-201-2001-00008,영업/정상,253,100411,서울특별시 중구 광희동1가 1-4번지 ,서울특별시 중구 동호로34길 15 (광희동1가),화신여관,여관업,200237.2853,451450.6863,127.0005837,37.56533851
77,3010000,3010000-201-2001-00009,영업/정상,212.66,100806,서울특별시 중구 남창동 168-5번지 ,서울특별시 중구 퇴계로4길 9 (남창동),황금장여관,여관업,197965.5102,450592.5219,126.9748725,37.55760416
78,3010000,3010000-201-2001-00012,영업/정상,100,100858,서울특별시 중구 중림동 66번지 ,서울특별시 중구 청파로 441-1 (중림동),우리텔,여인숙업,197173.8601,450729.0691,126.9659124,37.5588323
79,3010000,3010000-201-2001-00013,영업/정상,854.49,100855,서울특별시 중구 장충동2가 7-1번지 ,서울특별시 중구 퇴계로56길 51 (장충동2가),CF 모텔,여관업,200435.424,451035.4662,127.0028261,37.56159736
80,3010000,3010000-201-2001-00016,영업/정상,151.8,100800,서울특별시 중구 남대문로5가 63-4번지 ,서울특별시 중구 통일로 22-10 (남대문로5가),테마모텔,여관업,197506.0139,450627.9684,126.969672,37.55792237
81,3010000,3010000-201-2001-00019,영업/정상,297.52,100873,서울특별시 중구 회현동1가 86-1 1,2층,1,2022-12-27 16:12:00,198175.6153,450640.367,126.9772502,37.5580357
82,3010000,3010000-201-2002-00002,영업/정상,204.78,100-855,서울특별시 중구 장충동2가 74,서울특별시 중구 퇴계로56가길 2 (장충동2가),조이 게스트하우스,여관업,200414.4051,451048.4423,127.0025882,37.56171428
83,3010000,3010000-201-2002-00005,영업/정상,233.15,100864,서울특별시 중구 태평로2가 58-5번지 ,서울특별시 중구 세종대로16길 3 (태평로2가),알프스모텔,여관업,197918.925,451249.1641,126.9743433,37.56352033
84,3010000,3010000-201-2002-00007,영업/정상,51.15,100823,서울특별시 중구 신당동 239-46번지 ,서울특별시 중구 다산로35길 29-3 (신당동),성도여관,여관업,201168.1344,451300.2419,127.0111195,37.56398238
85,3010000,3010000-201-2002-00014,영업/정상,1,168,100873,서울특별시 중구 회현동1가 86-3,4634,00:09:00,198144.2145,450651.6878,126.9768948,37.55813763
86,3010000,3010000-201-2002-00015,영업/정상,63.25,100272,서울특별시 중구 필동2가 18-14,서울특별시 중구 퇴계로 210-47 (필동2가),한일장모텔,여관업,199494.0926,450932.4931,126.9921721,37.56066948
87,3010000,3010000-201-2002-00016,영업/정상,458.7,100411,서울특별시 중구 광희동1가 138-1 ,서울특별시 중구 을지로44길 6-7 (광희동1가),탑모텔,여관업,200476.8054,451495.1403,127.0032947,37.56573896
88,3010000,3010000-201-2002-00017,영업/정상,242.41,100861,서울특별시 중구 충무로2가 66-9번지 7층 ,서울특별시 중구 명동8가길 7 (충무로2가,4536,00:59:59,198640.6596,451053.3799,126.9825126,37.56175774
89,3010000,3010000-201-2002-00019,영업/정상,200,100-823,서울특별시 중구 신당동 241-102,서울특별시 중구 다산로35길 21 (신당동),8모텔,여관업,201203.715,451284.6772,127.0115222,37.5638421
90,3010000,3010000-201-2002-00023,영업/정상,442.73,100-411,서울특별시 중구 광희동1가 130,서울특별시 중구 을지로42길 11 (광희동1가),호텔 클로이,일반호텔,200448.9723,451491.6664,127.0029797,37.56570767
91,3010000,3010000-201-2002-00025,영업/정상,46.96,100834,서울특별시 중구 신당동 377-111번지 ,서울특별시 중구 청구로17길 83 (신당동),쉐어하우스 다함,일반호텔,200938.2931,450589.2571,127.0085172,37.55757672
92,3010000,3010000-201-2002-00026,영업/정상,757.39,100873,서울특별시 중구 회현동1가 142-8 1층~4층,서울특별시 중구 소공로3길 35 (회현동1가,4633,00:09:00,198377.9574,450478.0291,126.9795406,37.55657344
93,3010000,3010000-201-2002-00027,영업/정상,871,100835,서울특별시 중구 신당동 432-2241,서울특별시 중구 다산로 51 (신당동),벤허,여관업,200566.0023,449646.6396,127.0043031,37.54908411
94,3010000,3010000-201-2002-00028,영업/정상,209.58,100420,서울특별시 중구 무학동 33 2층,3층 , 2층,2020-10-29 10:57:00,201273.5838,451300.0261,127.012313,37.5639803
95,3010000,3010000-201-2002-00030,영업/정상,57.26,100412,서울특별시 중구 광희동2가 42,서울특별시 중구 퇴계로 325-4 (광희동2가),동대문인모텔(Dongdaemun Inn),여관업,200640.7634,451364.2116,127.0051505,37.56455922
96,3010000,3010000-201-2003-00001,영업/정상,744,100880,서울특별시 중구 흥인동 110번지 ,서울특별시 중구 다산로 255-1 (흥인동),레인보우호텔,여관업,201335.5064,451517.0075,127.0130142,37.56593519
97,3010000,3010000-201-2003-00002,영업/정상,22,41,100856,서울특별시 중구 장충동2가 202번지 ,4605,00:59:59,200463.6253,450497.4609,127.003145,37.55674998
98,3010000,3010000-201-2003-00003,영업/정상,1,370.66,100400,서울특별시 중구 쌍림동 240번지 ,4615,00:35:49,200419.8322,451197.2911,127.0026497,37.56305539
99,3010000,3010000-201-2003-00005,영업/정상,848.92,100851,서울특별시 중구 을지로6가 18-73 ,서울특별시 중구 을지로41길 10 (을지로6가),동대문라트리 호텔,여관업,200493.4213,451617.4019,127.0034829,37.56684051
100,3010000,3010000-201-2003-00007,영업/정상,537,100411,서울특별시 중구 광희동1가 182-6번지 ,서울특별시 중구 장충단로 229-5 (광희동1가),루모텔,여관업,200550.7366,451452.0354,127.0041315,37.56535055
101,3010000,3010000-201-2003-00011,영업/정상,248.5,100300,서울특별시 중구 초동 53-19,서울특별시 중구 충무로 21-19 (초동),대신모텔,여관업,199216.0394,451215.1146,126.9890247,37.56321566
102,3010000,3010000-201-2003-00012,영업/정상,69.3,100819,서울특별시 중구 신당동 121-56,서울특별시 중구 다산로42길 29 (신당동),재화여관,여관업,201517.6231,451375.9773,127.0150753,37.56466426
103,3010000,3010000-201-2003-00013,영업/정상,46,100819,서울특별시 중구 신당동 121-15번지 ,서울특별시 중구 다산로44길 30-2 (신당동),수정여관,여관업,201578.7653,451405.5009,127.0157674,37.56493016
104,3010000,3010000-201-2003-00014,영업/정상,650.91,100873,서울특별시 중구 회현동1가 72-1번지 ,서울특별시 중구 퇴계로4길 69 (회현동1가),서울씨티호텔(SEOUL CITY HOTEL),여관업,198243.8762,450663.7063,126.9780227,37.55824612
105,3010000,3010000-201-2003-00018,영업/정상,79.33,100869,서울특별시 중구 황학동 371-6번지 ,서울특별시 중구 퇴계로83길 12-5 (황학동),창덕여인숙,여인숙업,201584.9671,451577.8224,127.015838,37.56648275
106,3010000,3010000-201-2003-00020,영업/정상,359.2,100282,서울특별시 중구 인현동2가 181-5 ,서울특별시 중구 마른내로8길 13 (인현동2가),달콤명동게스트하우스,여관업,199636.1457,451249.4969,126.9937796,37.56352573
107,3010000,3010000-201-2003-00021,영업/정상,164.6,100858,서울특별시 중구 중림동 118-4번지 ,서울특별시 중구 청파로103길 18-4 (중림동),다림여인숙,여인숙업,197134.4538,450666.6007,126.9654666,37.55826934
108,3010000,3010000-201-2003-00022,영업/정상,239.68,100819,서울특별시 중구 신당동 110-5,서울특별시 중구 다산로44길 3-5 (신당동),유니온 모텔,여관업,201460.0903,451436.4072,127.0144242,37.56520881
109,3010000,3010000-201-2003-00023,영업/정상,86,100888,서울특별시 중구 신당동 236-293번지 ,서울특별시 중구 청구로 138 (신당동),한일여관,여관업,200852.7596,451306.0603,127.0075499,37.56403512
110,3010000,3010000-201-2003-00027,영업/정상,95.48,100807,서울특별시 중구 만리동1가 35-8,서울특별시 중구 만리재로37길 9 (만리동1가),천안 여인숙,여인숙업,197079.8183,450470.8962,126.9648491,37.55650589
111,3010000,3010000-201-2003-00029,영업/정상,396,100894,서울특별시 중구 신당동 430-4번지 ,서울특별시 중구 동호로15길 7 (신당동),퀸모텔,여관업,200704.6002,450446.4184,127.0058722,37.55628995
112,3010000,3010000-201-2003-00031,영업/정상,109.72,100272,서울특별시 중구 필동2가 57번지 ,서울특별시 중구 퇴계로42길 3-6 (필동2가),동산여관,여관업,199671.5207,451016.7228,126.9941801,37.56142848
113,3010000,3010000-201-2003-00032,영업/정상,247.5,100855,서울특별시 중구 장충동2가 12-6번지 ,서울특별시 중구 동호로30길 42 (장충동2가),장충인(J C INN),여관업,200394.7266,450973.574,127.0023655,37.56103973
114,3010000,3010000-201-2003-00033,영업/정상,48.6,100869,서울특별시 중구 황학동 754번지 ,,평양여인숙,여인숙업,201540.8996,451623.1039,127.0153393,37.5668908
115,3010000,3010000-201-2003-00034,영업/정상,102,100340,서울특별시 중구 산림동 4번지 ,서울특별시 중구 창경궁로5가길 19 (산림동),광신장여관,여관업,199706.0013,451734.4737,126.9945701,37.56789535
116,3010000,3010000-201-2003-00035,영업/정상,252,100-042,서울특별시 중구 남산동2가 11-1,서울특별시 중구 퇴계로20길 5-4 (남산동2가),서울뷰,여관업,198691.03,450839.3585,126.9830831,37.5598295
117,3010000,3010000-201-2003-00036,영업/정상,76.64,100-819,서울특별시 중구 신당동 130-14,서울특별시 중구 퇴계로 428-8 (신당동),중앙장여관,여관업,201614.9075,451446.4198,127.0161766,37.56529878
118,3010000,3010000-201-2003-00037,영업/정상,119,100823,서울특별시 중구 신당동 239-45번지 ,서울특별시 중구 다산로35길 29-1 (신당동),J모텔,여관업,201175.5547,451303.7669,127.0112035,37.56401413
119,3010000,3010000-201-2003-00038,영업/정상,290.4,100858,서울특별시 중구 중림동 128-24번지 ,서울특별시 중구 청파로 429-6 (중림동),해성장여관,여관업,197186.7897,450662.7612,126.966059,37.55823491
120,3010000,3010000-201-2003-00039,영업/정상,225.23,100852,서울특별시 중구 입정동 162,서울특별시 중구 충무로14길 6-12 (입정동),경주모텔,여관업,199305.7089,451695.3221,126.9900391,37.56754235
121,3010000,3010000-201-2003-00043,영업/정상,166,100855,서울특별시 중구 장충동2가 36-5번지 ,서울특별시 중구 동호로30길 27-6 (장충동2가),동림여관,여관업,200339.9489,451007.8676,127.0017455,37.56134873
122,3010000,3010000-201-2003-00045,영업/정상,165,100819,서울특별시 중구 신당동 130-13번지 ,서울특별시 중구 퇴계로84길 9 (신당동),현대여관,여관업,201601.8509,451437.9734,127.0160288,37.5652227
123,3010000,3010000-201-2003-00046,영업/정상,375.76,100859,서울특별시 중구 중림동 331-14,서울특별시 중구 만리재로35길 49 (중림동),WO모텔 충정로,여관업,197084.5067,450570.7789,126.9649018,37.55740583
124,3010000,3010000-201-2003-00047,영업/정상,45,100371,서울특별시 중구 만리동1가 62-38번지 ,서울특별시 중구 만리재로 207-10 (만리동1가),동은여인숙,여인숙업,197082.9529,450416.9964,126.9648848,37.55602027
125,3010000,3010000-201-2003-00049,영업/정상,149.54,100884,서울특별시 중구 신당동 308-21번지 ,서울특별시 중구 동호로12길 104 (신당동),대천여관,여관업,201037.9198,450825.1228,127.009645,37.55970175
126,3010000,3010000-201-2003-00050,영업/정상,165,100830,서울특별시 중구 신당동 366-101번지 ,서울특별시 중구 다산로 66 (신당동),세화장여관,여관업,200624.7099,449784.7596,127.0049675,37.55032852
127,3010000,3010000-201-2003-00052,영업/정상,32,100197,서울특별시 중구 을지로7가 12,서울특별시 중구 퇴계로 345-6 (을지로7가),박씨네 한옥,여관업,200833.3322,451407.371,127.0073301,37.56494794
128,3010000,3010000-201-2003-00054,영업/정상,205.26,100870,서울특별시 중구 황학동 1014번지 9/5 ,서울특별시 중구 퇴계로87길 42 (황학동,4575,00:40:00,201793.6605,451691.3226,127.0182004,37.56750501
129,3010000,3010000-201-2003-00061,영업/정상,277.08,100042,서울특별시 중구 남산동2가 50-1번지 ,서울특별시 중구 퇴계로18길 79-3 (남산동2가),남산길 하우스,여관업,198586.1397,450583.7556,126.9818965,37.55752638
130,3010000,3010000-201-2003-00068,영업/정상,256.95,100868,서울특별시 중구 황학동 48번지 ,서울특별시 중구 마장로9길 33-32 (황학동),중앙여관,여관업,201565.9949,451930.5913,127.015624,37.56966119
131,3010000,3010000-201-2003-00073,영업/정상,217.8,100-391,서울특별시 중구 장충동1가 58-5,서울특별시 중구 동호로24길 42 (장충동1가),파이프 호스텔,여관업,200432.033,450987.9212,127.0027877,37.56116899
132,3010000,3010000-201-2003-00074,영업/정상,633.37,100873,서울특별시 중구 회현동1가 53-6번지 ,서울특별시 중구 퇴계로12길 39-8 (회현동1가),HOTEL PARK HILL,여관업,198318.0816,450611.692,126.9788627,37.55777762
133,3010000,3010000-201-2003-00075,영업/정상,148.8,100873,서울특별시 중구 회현동1가 46-2 신세계여관,서울특별시 중구 퇴계로12길 39-22,4633,00:09:00,198365.3664,450602.6785,126.9793979,37.5576965
134,3010000,3010000-201-2003-00077,영업/정상,109.09,100874,서울특별시 중구 회현동1가 187-1,서울특별시 중구 퇴계로8길 6-1 (회현동1가),탑호텔(TOP HOTEL),여관업,198137.6142,450748.2432,126.9768199,37.55900757
135,3010000,3010000-201-2003-00078,영업/정상,238.54,100330,서울특별시 중구 주교동 96-1번지 ,서울특별시 중구 청계천로 188 (주교동),호텔 제이스테이(Hotel J-Stay),여관업,199799.2081,451816.8066,126.995625,37.56863719
136,3010000,3010000-201-2003-00079,영업/정상,90,100391,서울특별시 중구 장충동1가 23번지 ,서울특별시 중구 퇴계로60길 11 (장충동1가),케이게스트하우스 동대문 프리미엄점2,여관업,200510.2736,451241.1209,127.0036734,37.56345025
137,3010000,3010000-201-2003-00084,영업/정상,227.38,100420,서울특별시 중구 무학동 59-3 ,서울특별시 중구 다산로35길 22,3층 (무학동),U,201223.0075,451297.6611,127.0117405,37.56395906
138,3010000,3010000-201-2003-00085,영업/정상,982.69,100864,서울특별시 중구 태평로2가 70-2,서울특별시 중구 세종대로 66 (태평로2가),호텔 퍼스트스테이 명동(Hotel firststay myeongdong),여관업,197868.524,451095.9039,126.9737733,37.56213936
139,3010000,3010000-201-2003-00086,영업/정상,317,100230,서울특별시 중구 수표동 35-16번지 ,서울특별시 중구 수표로 68 (수표동),레몬 게스트 하우스,여관업,199030.8062,451659.587,126.9869275,37.56722011
140,3010000,3010000-201-2004-00002,영업/정상,269,100340,서울특별시 중구 산림동 76-2번지 ,서울특별시 중구 창경궁로5가길 27 (산림동),상원장,여관업,199673.0568,451752.147,126.9941971,37.56805457
141,3010000,3010000-201-2004-00003,영업/정상,1,118,100411,서울특별시 중구 광희동1가 150-5번지 외 4필지 ,외 4필지),I,200456.9379,451451.8681,127.0030698,37.56534909
142,3010000,3010000-201-2006-00001,영업/정상,14,210,100021,서울특별시 중구 명동1가 59-5 ,4534,00:40:00,198433.9032,451323.2163,126.9801719,37.56418859
143,3010000,3010000-201-2006-00003,영업/정상,211,100800,서울특별시 중구 남대문로5가 63-5번지 ,서울특별시 중구 통일로 22-8 (남대문로5가),테마21,여관업,197500.9579,450621.2013,126.9696148,37.55786139
144,3010000,3010000-201-2007-00001,영업/정상,11,248.13,100849,서울특별시 중구 을지로4가 310 지상2층일부,서울특별시 중구 을지로 164 (을지로4가,국도관광개발 주식회사 호텔국도,199603.0407,451543.6434,126.9934047,37.56617594
145,3010000,3010000-201-2008-00002,영업/정상,33,362.04,100130,서울특별시 중구 순화동 214외1번지 ,4517,00:59:59,197268.8854,451148.621,126.9669863,37.56261271
146,3010000,3010000-201-2009-00003,영업/정상,3,591.52,100196,서울특별시 중구 을지로6가 32번지 을지로코업레지던스빌딩 ,을지로코업레지던스빌딩),I,200406.5636,451542.2616,127.0024997,37.56616354
147,3010000,3010000-201-2010-00002,영업/정상,262.32,100869,서울특별시 중구 황학동 371-10번지 2~4층 ,서울특별시 중구 퇴계로83길 16 (황학동,4576,00:40:00,201579.8335,451568.9962,127.0157799,37.56640324
148,3010000,3010000-201-2010-00003,영업/정상,5,589.12,100195,서울특별시 중구 을지로5가 77-2번지 3,6,13,200224.8152,451582.6271,127.0004425,37.56652728
149,3010000,3010000-201-2010-00004,영업/정상,1,557.15,100011,서울특별시 중구 충무로1가 24-23 명동하늘빌딩 6,8, 명동하늘빌딩 6,198527.0993,450998.0734,126.9812275,37.56125925
150,3010000,3010000-201-2010-00006,영업/정상,386.49,100180,서울특별시 중구 다동 114 번지 2,3,서울특별시 중구 남대문로9길 8 (다동,4522,198342.2791,451614.0686,126.9791342,37.56680897
151,3010000,3010000-201-2010-00008,영업/정상,2,81.38,100080,서울특별시 중구 북창동 122, 1~10층 (북창동),U,197959.8106,451024.3296,126.9748067,37.56149469
152,3010000,3010000-201-2011-00002,영업/정상,344,100874,서울특별시 중구 회현동1가 199-6번지 7층 ,서울특별시 중구 남대문시장길 61 (회현동1가,4529,00:59:59,198113.9323,450944.4452,126.9765513,37.56077528
153,3010000,3010000-201-2011-00003,영업/정상,136,100330,서울특별시 중구 주교동 136-5 2~4층 ,서울특별시 중구 창경궁로 67-6 (주교동,4545,00:40:00,199715.4286,451800.1655,126.9946767,37.56848722
154,3010000,3010000-201-2011-00005,영업/정상,952.64,100080,서울특별시 중구 북창동 104 3~4층 ,서울특별시 중구 남대문로1길 26-10 (북창동,4526,00:40:00,197986.8957,451089.6626,126.9751131,37.5620834
155,3010000,3010000-201-2011-00006,영업/정상,7,111.91,100845,서울특별시 중구 을지로2가 195-8번지 ,4538,00:59:59,198609.6543,451404.4049,126.982161,37.56492038
156,3010000,3010000-201-2011-00007,영업/정상,310,100340,서울특별시 중구 산림동 293-1번지 3~4층 ,서울특별시 중구 을지로 153-7 (산림동,4544,00:59:59,199489.2402,451626.1467,126.9921166,37.56691922
157,3010000,3010000-201-2011-00008,영업/정상,5,130.29,100861,서울특별시 중구 충무로2가 62-9,4537,00:01:00,198814.8844,451003.687,126.9844846,37.56131026
158,3010000,3010000-201-2011-00010,영업/정상,546.47,100080,서울특별시 중구 북창동 95 ,서울특별시 중구 남대문로1길 26-8 (북창동),피넛호텔,여관업,197971.4235,451099.7887,126.974938,37.5621746
159,3010000,3010000-201-2012-00001,영업/정상,553.72,100809,서울특별시 중구 명동2가 2-7번지 명광빌딩 2~5층 ,서울특별시 중구 명동10길 7-7 (명동2가,4537,00:59:59,198660.3854,451251.3304,126.9827355,37.56354128
160,3010000,3010000-201-2012-00002,영업/정상,1,721.5,100874,서울특별시 중구 회현동1가 199-6 모빅빌딩 4~6층,서울특별시 중구 남대문시장길 61,4529,198113.9323,450944.4452,126.9765513,37.56077528
161,3010000,3010000-201-2012-00003,영업/정상,469.92,100196,서울특별시 중구 을지로6가 53-4번지 1층~5층 ,서울특별시 중구 을지로40길 3 (을지로6가,4561,00:59:59,200368.7653,451552.7777,127.0020719,37.5662583
162,3010000,3010000-201-2012-00006,영업/정상,11,672.05,100021,서울특별시 중구 명동1가 10-1 외 1필지 명동센트럴빌딩, 명동센트럴빌딩),U,198625.2543,451373.686,126.9823376,37.56464364
163,3010000,3010000-201-2012-00007,영업/정상,5,185.47,100861,서울특별시 중구 충무로2가 63-2 ,4537,00:40:00,198695.6586,451034.5095,126.9831352,37.5615878
164,3010000,3010000-201-2012-00008,영업/정상,3,883.37,100801,서울특별시 중구 남대문로5가 84-16번지 ,4527,00:59:59,197711.6301,450541.1714,126.9719993,37.55714089
165,3010000,3010000-201-2013-00001,영업/정상,743.6,100015,서울특별시 중구 충무로5가 19-5 광암라이피아 2~5층 ,서울특별시 중구 퇴계로 245, 광암라이피아),U,199847.3665,451150.4109,126.9961704,37.56263305
166,3010000,3010000-201-2013-00002,영업/정상,1,758.22,100861,서울특별시 중구 충무로2가 62-2번지 외 1필지 ,4537,00:59:59,198797.2986,451041.8933,126.9842855,37.56165447
167,3010000,3010000-201-2013-00003,영업/정상,185.12,100015,서울특별시 중구 충무로5가 19-7번지 4층,5층 , 4층,2017-11-29 10:19:00,199815.7636,451141.6191,126.9958127,37.56255383
168,3010000,3010000-201-2013-00005,영업/정상,2,329.08,100080,서울특별시 중구 북창동 93-43 지1층~7층 , 지1층~7층),U,198047.6741,451117.6741,126.9758009,37.56233591
169,3010000,3010000-201-2013-00008,영업/정상,4,41.31,100080,서울특별시 중구 북창동 17-1 , 지상2층~11층 (북창동),U,197996.3032,451214.9404,126.9752192,37.56321216
170,3010000,3010000-201-2013-00009,영업/정상,513.4,100080,서울특별시 중구 북창동 108-5,서울특별시 중구 남대문로 25-13 (북창동),서울쎈트럴호텔(SEOUL CENTRAL HOTEL),여관업,198005.1343,451061.2131,126.9753196,37.56182711
171,3010000,3010000-201-2013-00011,영업/정상,12,62.82,100094,서울특별시 중구 남대문로4가 17-7번지 2층~15층 , 2층~15층),I,197847.7545,451011.2319,126.9735385,37.56137642
172,3010000,3010000-201-2013-00013,영업/정상,106.42,100847,서울특별시 중구 을지로3가 225-1번지 ,서울특별시 중구 을지로15길 6-15 (을지로3가),서울맘 게스트하우스,여관업,199404.2614,451622.3786,126.9911547,37.56688521
173,3010000,3010000-201-2013-00015,영업/정상,9,26.49,100391,서울특별시 중구 장충동1가 31-7번지 지하2층~지상9층 , 지하2층~지상9층),I,200538.8501,451107.6143,127.0039968,37.56224736
174,3010000,3010000-201-2013-00016,영업/정상,347.1,100800,서울특별시 중구 남대문로5가 17-8번지 1층~3층 ,서울특별시 중구 세종대로2나길 21 (남대문로5가,4527,00:59:59,197687.2689,450686.4446,126.9717232,37.55844972
175,3010000,3010000-201-2014-00001,영업/정상,318.8,100860,서울특별시 중구 충무로2가 12-4번지 금성빌딩 3,4층 , 금성빌딩 3,2017-11-29 10:50:00,198911.0286,451082.2144,126.9855727,37.56201791
176,3010000,3010000-201-2014-00003,영업/정상,1,119.71,100180,서울특별시 중구 다동 115번지 ,4522,00:59:59,198336.8891,451629.5562,126.9790731,37.5669485
177,3010000,3010000-201-2014-00004,영업/정상,641.39,100080,서울특별시 중구 북창동 134-1 4,5,서울특별시 중구 남대문로1길 6,4526,197960.9876,451009.7108,126.9748201,37.56136298
178,3010000,3010000-201-2014-00005,영업/정상,222.27,100013,서울특별시 중구 충무로3가 24-13번지 2,3,서울특별시 중구 수표로 22-4,4555,199101.7051,451201.7209,126.9877306,37.56309487
179,3010000,3010000-201-2014-00006,영업/정상,1,44,100851,서울특별시 중구 을지로6가 18-130번지 기승빌딩 7~9층 , 7~9층 (을지로6가,2019-07-11 13:05:00,200513.5245,451579.0998,127.0037104,37.5664954
180,3010000,3010000-201-2014-00007,영업/정상,7,536.03,100310,서울특별시 중구 오장동 206-2 동대문호텔피에프브이, 동대문호텔피에프브이),U,200113.9996,451324.0261,126.9991882,37.56419733
181,3010000,3010000-201-2014-00008,영업/정상,547.71,100802,서울특별시 중구 남대문로5가 552번지 ,서울특별시 중구 후암로60길 17 (남대문로5가),쿱케이팝,여관업,197719.3535,450586.4252,126.9720866,37.55754864
182,3010000,3010000-201-2014-00009,영업/정상,2,589.38,100011,서울특별시 중구 충무로1가 24-30번지 ,4536,00:59:59,198484.0965,450963.9718,126.9807408,37.56095192
183,3010000,3010000-201-2014-00010,영업/정상,273.72,100013,서울특별시 중구 충무로3가 57-3번지 2F~5F ,서울특별시 중구 퇴계로31길 29 (충무로3가,4554,00:59:59,199237.8591,451136.4603,126.9892718,37.56250701
184,3010000,3010000-201-2014-00011,영업/정상,547.44,100011,서울특별시 중구 충무로1가 24-6 ,서울특별시 중구 명동8나길 9,7층 (충무로1가),U,198554.8834,451001.4481,126.9815419,37.5612897
185,3010000,3010000-201-2014-00012,영업/정상,5,769.68,100310,서울특별시 중구 오장동 181-4번지 ,4561,00:59:59,200171.9358,451444.2464,126.999844,37.56528049
186,3010000,3010000-201-2014-00014,영업/정상,50.58,100874,서울특별시 중구 회현동1가 199-6 모딕빌딩 10층,서울특별시 중구 남대문시장길 61 (회현동1가,4529,00:09:00,198113.9323,450944.4452,126.9765513,37.56077528
187,3010000,3010000-201-2014-00015,영업/정상,4,567.92,100412,서울특별시 중구 광희동2가 238-1 2층~15층, 2층~15층층 (광희동2가),U,200701.1424,451316.5368,127.0058338,37.56412963
188,3010000,3010000-201-2014-00016,영업/정상,1475.52,100-021,서울특별시 중구 명동1가 7-1,서울특별시 중구 명동길 55,13층,2023-04-04 10:50:00,198636.1421,451325.2298,126.982461,37.56420707
189,3010000,3010000-201-2014-00018,영업/정상,419.75,100080,서울특별시 중구 북창동 104 5층 ,서울특별시 중구 남대문로1길 26-10 (북창동,4526,00:40:00,197986.8957,451089.6626,126.9751131,37.5620834
190,3010000,3010000-201-2015-00001,영업/정상,272.2,100-861,서울특별시 중구 충무로2가 51-17,서울특별시 중구 퇴계로 159-8 (충무로2가),올스테이인,숙박업 기타,199037.9165,451051.292,126.9870089,37.56173945
191,3010000,3010000-201-2015-00003,영업/정상,358.02,100-330,서울특별시 중구 주교동 125-2 3,4,서울특별시 중구 청계천로 184,4546,199770.3777,451814.6004,126.9952987,37.5686173
192,3010000,3010000-201-2015-00004,영업/정상,7,406.53,100861,서울특별시 중구 충무로2가 53-10,4553,00:07:00,198990.203,451044.8953,126.9864688,37.56168176
193,3010000,3010000-201-2015-00005,영업/정상,881.81,100851,서울특별시 중구 을지로6가 18-59,서울특별시 중구 을지로43길 9-8,4564,00:02:00,200504.485,451629.3608,127.0036081,37.56694826
194,3010000,3010000-201-2015-00008,영업/정상,534.54,100860,서울특별시 중구 충무로2가 12-17 가나빌딩 4층,5층,서울특별시 중구 명동8가길 33 (충무로2가,4537,198773.9871,451070.3628,126.9840216,37.56191095
195,3010000,3010000-201-2015-00010,영업/정상,303.89,100011,서울특별시 중구 충무로1가 25-50번지 3,4,서울특별시 중구 퇴계로 103,4535,198447.6446,450955.1611,126.9803283,37.56087248
196,3010000,3010000-201-2015-00011,영업/정상,3,383.64,100013,서울특별시 중구 충무로3가 30-1번지 스테이비 호텔 명동 , 스테이비 호텔 명동),I,199295.434,451227.8796,126.9899233,37.56333074
197,3010000,3010000-201-2015-00012,영업/정상,3,374.33,100863,서울특별시 중구 충무로4가 125-11번지 ,4625,00:59:59,199560.4116,451005.6478,126.9929226,37.56132864
198,3010000,3010000-201-2015-00014,영업/정상,5,749.82,100290,서울특별시 중구 예관동 70-2 ,4559,00:40:00,199812.2047,451319.1275,126.9957723,37.56415316
199,3010000,3010000-201-2015-00015,영업/정상,9,973.62,100845,서울특별시 중구 을지로2가 101-1,4542,00:07:00,198991.4807,451591.9121,126.9864825,37.56661033
200,3010000,3010000-201-2015-00016,영업/정상,5,163.73,100013,서울특별시 중구 충무로3가 58-8,4554,00:05:00,199114.933,451143.3582,126.9878804,37.56256904
201,3010000,3010000-201-2015-00017,영업/정상,2,190.38,100310,서울특별시 중구 오장동 90-24번지 , 1~9층 (오장동),I,199921.3975,451313.0036,126.9970082,37.56409801
202,3010000,3010000-201-2015-00018,영업/정상,10421.97,100-250,서울특별시 중구 예장동 2-19,서울특별시 중구 삼일대로2길 50 (예장동),오리엔스호텔&레지던스,관광호텔,199159.9332,450864.4496,126.9883901,37.56005615
203,3010000,3010000-201-2015-00019,영업/정상,456.28,100860,서울특별시 중구 충무로2가 12-27 ,서울특별시 중구 명동8가길 47,8층 (충무로2가),U,198841.349,451075.9012,126.984784,37.56196094
204,3010000,3010000-201-2015-00020,영업/정상,1,116.78,100873,서울특별시 중구 회현동1가 99-18번지 ,4634,00:40:00,198142.8812,450638.8105,126.9768798,37.55802161
205,3010000,3010000-201-2015-00021,영업/정상,747,100860,서울특별시 중구 충무로2가 12-19번지 4층~8층 ,서울특별시 중구 명동8가길 31 (충무로2가,4537,00:59:59,198764.1347,451069.8538,126.9839101,37.56190635
206,3010000,3010000-201-2015-00022,영업/정상,263.27,100197,서울특별시 중구 을지로7가 32-3번지 2층,3층,서울특별시 중구 을지로 282-1,4565,200758.65,451449.2013,127.0064848,37.56532488
207,3010000,3010000-201-2015-00023,영업/정상,12,565.85,100412,서울특별시 중구 광희동2가 17 ,4565,00:40:00,200614.7247,451381.2495,127.0048557,37.56471274
208,3010000,3010000-201-2015-00024,영업/정상,1,377.07,100860,서울특별시 중구 충무로2가 12-7번지 ,4537,00:59:59,198877.8236,451079.5618,126.9851969,37.56199397
209,3010000,3010000-201-2015-00025,영업/정상,165.9,100411,서울특별시 중구 광희동1가 193 광성빌딩  3층,서울특별시 중구 장충단로 225 (광희동1가,4561,00:09:00,200547.6397,451402.8925,127.0040964,37.56490778
210,3010000,3010000-201-2015-00026,영업/정상,393.52,100-804,서울특별시 중구 남창동 9-15 10층,서울특별시 중구 퇴계로 61,4529,00:01:00,198065.8456,450787.3968,126.9760075,37.55936019
211,3010000,3010000-201-2015-00027,영업/정상,613.22,100080,서울특별시 중구 북창동 104번지 2층 ,서울특별시 중구 남대문로1길 26-10,4526,00:59:59,197986.8957,451089.6626,126.9751131,37.5620834
212,3010000,3010000-201-2015-00028,영업/정상,340.22,100310,서울특별시 중구 오장동 139-3번지 4층~6층 ,서울특별시 중구 동호로 345,4547,00:40:00,200113.2657,451434.0577,126.9991799,37.5651887
213,3010000,3010000-201-2015-00029,영업/정상,4,804.48,100400,서울특별시 중구 쌍림동 270-2번지 ,4615,00:40:00,200429.9294,451264.5958,127.0027641,37.5636618
214,3010000,3010000-201-2015-00030,영업/정상,12,388.79,100809,서울특별시 중구 명동2가 31-1 7층~22층 , 7층~22층 (명동2가),U,198619.3882,451135.7403,126.9822717,37.56249976
215,3010000,3010000-201-2015-00031,영업/정상,881.23,100310,서울특별시 중구 오장동 139-18번지 ,서울특별시 중구 동호로 343-1 (오장동),글로리 인(Glory Inn),일반호텔,200114.0471,451422.3838,126.9991888,37.56508352
216,3010000,3010000-201-2015-00032,영업/정상,893.64,100011,서울특별시 중구 충무로1가 24-28번지 11,12,서울특별시 중구 명동2길 57 (충무로1가,4536,198467.5819,450968.9853,126.9805539,37.56099707
217,3010000,3010000-201-2015-00033,영업/정상,357.77,100102,서울특별시 중구 태평로2가 366-1번지 3층 ,서울특별시 중구 덕수궁길 7,4515,00:35:49,197838.5063,451380.7703,126.9734327,37.5647059
218,3010000,3010000-201-2015-00034,영업/정상,2,387.18,100195,서울특별시 중구 을지로5가 274-1번지 (지하1층 면적 제외) ,4547,00:59:59,200110.3353,451549.0544,126.9991467,37.56622481
219,3010000,3010000-201-2015-00035,영업/정상,9,940.25,100070,서울특별시 중구 소공동 70번지 ,4532,00:40:00,198232.0039,451276.3073,126.9778868,37.56376557
220,3010000,3010000-201-2015-00036,영업/정상,1,774.28,100851,서울특별시 중구 을지로6가 18-185 19층,서울특별시 중구 장충단로 263,호텔 밀리오레,200664.5829,451781.8684,127.0054204,37.56832224
221,3010000,3010000-201-2015-00037,영업/정상,18,598.8,100080,서울특별시 중구 북창동 93-52 ,4526,00:40:00,198055.2308,451060.5038,126.9758866,37.56182083
222,3010000,3010000-201-2015-00038,영업/정상,281.12,100847,서울특별시 중구 을지로3가 291-45 2층,서울특별시 중구 충무로 54-3,4549,00:05:00,199321.5604,451526.9013,126.9902187,37.56602491
223,3010000,3010000-201-2015-00039,영업/정상,837.71,100-800,서울특별시 중구 남대문로5가 17-2,서울특별시 중구 세종대로 24-1 (남대문로5가),르코지,여관업,197673.7261,450696.1529,126.9715699,37.55853716
224,3010000,3010000-201-2015-00040,영업/정상,298.24,100411,서울특별시 중구 광희동1가 38-1번지 3층,4층,서울특별시 중구 을지로38길 11,4561,200271.3984,451530.9771,127.0009698,37.56606191
225,3010000,3010000-201-2016-00001,영업/정상,25333.62,100-220,서울특별시 중구 장교동 22-4,서울특별시 중구 삼일대로 362 (장교동),(주)호텔롯데 롯데시티호텔명동,관광호텔,198876.9253,451628.1532,126.9851858,37.56693671
226,3010000,3010000-201-2016-00002,영업/정상,15016.24,100-861,서울특별시 중구 충무로2가 62-12,서울특별시 중구 퇴계로 137 (충무로2가),(주)호텔롯데L7명동,관광호텔,198780.0187,451009.7736,126.98409,37.56136505
227,3010000,3010000-201-2016-00003,영업/정상,976.11,100300,서울특별시 중구 초동 19-10 2층~7층 ,서울특별시 중구 충무로5길 3 (초동,4550,00:40:00,199261.5169,451418.4403,126.9895392,37.56504764
228,3010000,3010000-201-2016-00006,영업/정상,11,378.16,100195,서울특별시 중구 을지로5가 275-3번지 ,4561,00:59:59,200161.1924,451521.4155,126.9997224,37.56597578
229,3010000,3010000-201-2016-00007,영업/정상,509.25,100810,서울특별시 중구 명동2가 52-7 4~6층 ,서울특별시 중구 명동8길 36,4536,00:40:00,198579.953,451091.1367,126.9818255,37.56209783
230,3010000,3010000-201-2016-00008,영업/정상,993.3,100412,서울특별시 중구 광희동2가 360번지 ,서울특별시 중구 장충단로 213,4615,00:35:49,200526.6564,451268.2987,127.0038589,37.56369512
231,3010000,3010000-201-2016-00009,영업/정상,409.41,100412,서울특별시 중구 광희동2가 96번지 1층,2층,4층 ,3층4층 (광희동2가),200792.0686,451392.7896,127.006863,37.56481659
232,3010000,3010000-201-2016-00010,영업/정상,420.7,100809,서울특별시 중구 명동2가 32-2 3~4층,서울특별시 중구 명동8길 21-7,4536,00:00:00,198620.5002,451181.8387,126.9822842,37.5629151
233,3010000,3010000-201-2016-00011,영업/정상,19,58,100094,서울특별시 중구 남대문로4가 17-23번지 , 4~20층 (남대문로4가),I,197891.5649,450990.5935,126.9740344,37.56119058
234,3010000,3010000-201-2016-00013,영업/정상,25,757.87,100850,서울특별시 중구 을지로6가 17-2번지 현대시티타워지하2층,14~22층 ,14~22층),200613.5103,451817.5154,127.0048423,37.56864345
235,3010000,3010000-201-2016-00015,영업/정상,6,366.79,100195,서울특별시 중구 을지로5가 273-4번지 2~20층 , 2~20층 (을지로5가),U,200096.9307,451569.9296,126.998995,37.56641289
236,3010000,3010000-201-2016-00016,영업/정상,89.04,100866,서울특별시 중구 필동1가 10-6번지 2층~5층 ,서울특별시 중구 퇴계로31길 9 (필동1가,4554,00:35:49,199238.8375,451039.7926,126.9892829,37.56163605
237,3010000,3010000-201-2016-00017,영업/정상,3,790.53,100021,서울특별시 중구 명동1가 59-1번지 3~5층 , 3~5층),I,198514.1268,451341.5123,126.9810799,37.56435357
238,3010000,3010000-201-2016-00018,영업/정상,441.54,100021,서울특별시 중구 명동1가 38-1 5,6층,5,2022-08-30 13:52:00,198564.1795,451386.8747,126.9816463,37.56476237
239,3010000,3010000-201-2016-00019,영업/정상,264.6,100411,서울특별시 중구 광희동1가 182-20 2~5층 ,서울특별시 중구 장충단로 229-9 (광희동1가,4561,00:40:00,200538.2033,451456.4171,127.0039897,37.56539004
240,3010000,3010000-201-2016-00021,영업/정상,417.19,100837,서울특별시 중구 신당동 773 18층,서울특별시 중구 마장로 3 (신당동,4567,00:09:00,200863.5941,451837.4816,127.0076731,37.56882316
241,3010000,3010000-201-2016-00024,영업/정상,313.28,100412,서울특별시 중구 광희동2가 43-1번지 3~6층 ,서울특별시 중구 퇴계로 329 (광희동2가,4565,00:40:00,200647.1594,451357.6211,127.0052228,37.56449983
242,3010000,3010000-201-2016-00025,영업/정상,555.6,100860,서울특별시 중구 충무로2가 12-10 3~8층 ,서울특별시 중구 명동8가길 49 (충무로2가,4537,00:40:00,198854.0678,451076.8717,126.984928,37.5619697
243,3010000,3010000-201-2017-00001,영업/정상,5,973.91,100810,서울특별시 중구 명동2가 104번지 3층~20층 , 3층~20층),U,198333.3358,451110.7849,126.9790341,37.56227442
244,3010000,3010000-201-2017-00002,영업/정상,386.04,100-042,서울특별시 중구 남산동2가 36-6 1~2층,서울특별시 중구 소공로6길 29 (남산동2가,4631,00:01:00,198584.7973,450705.2102,126.9818811,37.55862068
245,3010000,3010000-201-2017-00003,영업/정상,15,883.04,100300,서울특별시 중구 초동 72-10 3~16층 , 3~16층),U,199128.5533,451340.5955,126.9880343,37.56434614
246,3010000,3010000-201-2017-00005,영업/정상,212.51,100809,서울특별시 중구 명동2가 3-3번지 5층 ,서울특별시 중구 명동10길 19-3 (명동2가,4537,00:35:49,198659.4462,451198.7893,126.982725,37.56306789
247,3010000,3010000-201-2017-00006,영업/정상,999,100-042,서울특별시 중구 남산동2가 45-10 지하 1층~ 지상 5층,서울특별시 중구 퇴계로18길 67 (남산동2가,4630,00:00:00,198567.9043,450646.3872,126.98169,37.55809066
248,3010000,3010000-201-2017-00007,영업/정상,6,601.21,100032,서울특별시 중구 저동2가 48-27 ,4555,00:40:00,199088.3227,451230.6101,126.9875791,37.56335514
249,3010000,3010000-201-2017-00008,영업/정상,297.52,100080,서울특별시 중구 북창동 94-38 1~3층 ,서울특별시 중구 남대문로1길 26-19 (북창동,4526,00:40:00,198018.794,451118.8737,126.9754741,37.56234666
250,3010000,3010000-201-2017-00009,영업/정상,600.33,100-013,서울특별시 중구 충무로3가 59-22 영한빌딩 3,4,서울특별시 중구 수표로 14,4554,199100.3459,451122.184,126.9877154,37.56237825
251,3010000,3010000-201-2017-00010,영업/정상,178.54,100-042,서울특별시 중구 남산동2가 33-3 1~2층,서울특별시 중구 퇴계로18길 41 (남산동2가,4631,00:03:00,198602.1193,450758.3647,126.982077,37.55909962
252,3010000,3010000-201-2017-00011,영업/정상,166.54,100-042,서울특별시 중구 남산동2가 33 1,2층,1,2023-02-28 11:06:00,198607.6709,450770.8299,126.9821398,37.55921194
253,3010000,3010000-201-2017-00012,영업/정상,430.17,100803,서울특별시 중구 남대문로5가 575번지 1~5층 ,서울특별시 중구 후암로60길 11 (남대문로5가,4637,00:35:49,197616.9273,450266.2638,126.9709285,37.55466375
254,3010000,3010000-201-2017-00013,영업/정상,1,191.64,100860,서울특별시 중구 충무로2가 11-1번지 선샤인빌딩 7층,서울특별시 중구 명동8가길 27 (충무로2가,명동 선샤인 게스트하우스,198737.5538,451081.8946,126.9836093,37.5620148
255,3010000,3010000-201-2017-00015,영업/정상,484.82,100861,서울특별시 중구 충무로2가 66-9번지 4~5층 ,서울특별시 중구 명동8가길 7 (충무로2가,4536,00:59:59,198640.6596,451053.3799,126.9825126,37.56175774
256,3010000,3010000-201-2017-00017,영업/정상,172.23,100412,서울특별시 중구 광희동2가 163-2번지 1,2층 ,1,2018-11-13 11:29:00,200758.9947,451302.331,127.0064886,37.5640016
257,3010000,3010000-201-2017-00020,영업/정상,658.07,100250,서울특별시 중구 예장동 1-43 1층, 2층,서울특별시 중구 필동로8길 77 (예장동,4626,199329.7852,450473.2728,126.9903129,37.55653184
258,3010000,3010000-201-2017-00021,영업/정상,895.08,100031,서울특별시 중구 저동1가 28-3번지 ,서울특별시 중구 삼일대로9길 2-1 (저동1가),이화호텔,일반호텔,198850.2921,451274.5891,126.9848849,37.56375111
259,3010000,3010000-201-2017-00022,영업/정상,499.2,100861,서울특별시 중구 충무로2가 61-2 5~7층,서울특별시 중구 명동8가길 52 (충무로2가,4537,00:01:00,198866.5881,451052.3163,126.9850697,37.56174847
260,3010000,3010000-201-2017-00023,영업/정상,2,119.74,100197,서울특별시 중구 을지로7가 105번지 에이피엠플레이스 11,서울특별시 중구 을지로 276 (을지로7가,에이피엠 레지던스,200673.0115,451443.2799,127.0055155,37.56527159
261,3010000,3010000-201-2017-00025,영업/정상,2,896.86,100400,서울특별시 중구 쌍림동 155-1번지 호텔더디자이너스디디피 , 호텔더디자이너스디디피),I,200292.6583,451281.027,127.0012104,37.56380988
262,3010000,3010000-201-2018-00001,영업/정상,175.79,100810,서울특별시 중구 명동2가 53-11 4층,서울특별시 중구 명동4길 31,4536,00:02:00,198524.1716,451104.4005,126.9811941,37.56221724
263,3010000,3010000-201-2018-00002,영업/정상,4,303.56,100080,서울특별시 중구 북창동 12-1번지 호텔 토마스 명동 , 호텔 토마스 명동 (북창동),I,198018.6799,451207.7298,126.9754725,37.56314724
264,3010000,3010000-201-2018-00003,영업/정상,5,464.26,100260,서울특별시 중구 남학동 13-2 지하2층~14층 , 지하2층~14층 (남학동),U,199161.1131,450949.2339,126.9884034,37.56082005
265,3010000,3010000-201-2018-00004,영업/정상,484.97,100-042,서울특별시 중구 남산동2가 27-12,서울특별시 중구 퇴계로20길 32-10 (남산동2가),호텔 룩홈(Look Home),숙박업 기타,198676.5104,450673.848,126.9829191,37.55833825
266,3010000,3010000-201-2018-00005,영업/정상,1,729.22,100862,서울특별시 중구 충무로4가 131-6번지 6~10층 , 6~10층 (충무로4가),I,199498.592,451071.935,126.9922229,37.56192584
267,3010000,3010000-201-2018-00006,영업/정상,540.08,100845,서울특별시 중구 을지로2가 199-40 명동아르누보센텀 405호, 408~414호, 명동아르누보센텀 405호,2022-11-01 10:30:00,198505.1408,451381.1131,126.9809781,37.56471036
268,3010000,3010000-201-2018-00007,영업/정상,24,504.67,100196,서울특별시 중구 을지로6가 58-5 ,4561,00:40:00,200314.647,451554.0669,127.0014593,37.56626994
269,3010000,3010000-201-2018-00008,영업/정상,14,580.64,100874,서울특별시 중구 회현동1가 194-19 AK타워 B동 9층-24층 , AK타워 B동 9층-24층 (회현동1가),U,198107.3055,450816.419,126.9764767,37.55962177
270,3010000,3010000-201-2018-00009,영업/정상,11,132.14,100094,서울특별시 중구 남대문로4가 17-19,4526,00:02:00,197895.4912,451035.703,126.9740787,37.56159702
271,3010000,3010000-201-2018-00010,영업/정상,142.8,100412,서울특별시 중구 광희동2가 228,서울특별시 중구 장충단로10길 27 (광희동2가),르릿,숙박업 기타,200686.3647,451262.1614,127.0056665,37.56363973
272,3010000,3010000-201-2018-00012,영업/정상,4,699.22,100412,서울특별시 중구 광희동2가 14-1번지 2층-19층 , 2층-19층 (광희동2가),U,200625.5246,451359.9061,127.004978,37.56452043
273,3010000,3010000-201-2018-00013,영업/정상,1,570.56,100809,서울특별시 중구 명동2가 22번지 ,4537,00:40:00,198690.3303,451150.1162,126.9830746,37.5626294
274,3010000,3010000-201-2019-00001,영업/정상,349.3,100845,서울특별시 중구 을지로2가 199-40 명동아르누보센텀,서울특별시 중구 명동7길 21,4534,00:09:00,198505.1408,451381.1131,126.9809781,37.56471036
275,3010000,3010000-201-2019-00003,영업/정상,607.64,100042,서울특별시 중구 남산동2가 18-6번지 ,서울특별시 중구 퇴계로20길 35,4629,00:21:20,198730.3971,450725.5631,126.9835289,37.55880428
276,3010000,3010000-201-2019-00007,영업/정상,416.44,100-021,서울특별시 중구 명동1가 7-1,서울특별시 중구 명동길 55,4538,00:05:00,198636.1421,451325.2298,126.982461,37.56420707
277,3010000,3010000-201-2019-00008,영업/정상,610.66,100-042,서울특별시 중구 남산동2가 35-2,서울특별시 중구 퇴계로18길 43, 1~2층 (남산동2가),U,198591.1337,450740.3532,126.9819527,37.55893732
278,3010000,3010000-201-2019-00009,영업/정상,2,170.26,100845,서울특별시 중구 을지로2가 199-13번지 4~9층 , 4~9층 (을지로2가),U,198493.6591,451451.4785,126.980848,37.56534432
279,3010000,3010000-201-2019-00010,영업/정상,4,22.27,100809,서울특별시 중구 명동2가 33-1 4~13층 , 4~13층 (명동2가),U,198606.5951,451266.2808,126.9821267,37.5636759
280,3010000,3010000-201-2019-00011,영업/정상,354.66,100851,서울특별시 중구 을지로6가 18-130번지 10층 ,서울특별시 중구 을지로 255,4564,00:40:00,200513.5245,451579.0998,127.0037104,37.5664954
281,3010000,3010000-201-2019-00012,영업/정상,214.5,100011,서울특별시 중구 충무로1가 22-4번지 6층 ,서울특별시 중구 명동8나길 18,4536,00:23:35,198517.053,451032.0069,126.9811137,37.56156497
282,3010000,3010000-201-2019-00013,영업/정상,5,152.48,100011,서울특별시 중구 충무로1가 24-1 밀레오레 명동, 4-17층 (충무로1가),U,198562.6327,450975.1164,126.9816297,37.56105247
283,3010000,3010000-201-2019-00014,영업/정상,8,871.73,100195,서울특별시 중구 을지로5가 92-2 ,4561,00:40:00,200187.2714,451592.1581,127.0000176,37.56661316
284,3010000,3010000-201-2020-00001,영업/정상,1,578.72,100411,서울특별시 중구 광희동1가 263-2번지 B동 2-12층 , B동 2-12층 (광희동1가),I,200330.9741,451373.1594,127.0016441,37.56463998
285,3010000,3010000-201-2020-00002,영업/정상,165.9,100411,서울특별시 중구 광희동1가 193 ,서울특별시 중구 장충단로 225,4561,00:40:00,200547.6397,451402.8925,127.0040964,37.56490778
286,3010000,3010000-201-2020-00003,영업/정상,5,957.92,100180,서울특별시 중구 다동 130 ,4522,00:23:13,198260.8807,451708.9092,126.9782126,37.56766332
287,3010000,3010000-201-2020-00004,영업/정상,796.37,100-858,서울특별시 중구 중림동 128-40,서울특별시 중구 청파로 431 (중림동),랑 호텔(RANG Hotel),숙박업 기타,197199.9838,450649.1078,126.9662084,37.55811194
288,3010000,3010000-201-2020-00005,영업/정상,20,569.5,100032,서울특별시 중구 저동2가 89 , 지하3~지상26층 (저동2가),U,199002.2556,451492.2078,126.9866046,37.56571201
289,3010000,3010000-201-2021-00001,영업/정상,363.57,100013,서울특별시 중구 충무로3가 26-2 ,서울특별시 중구 수표로6길 33,4555,00:40:00,199245.2648,451184.7897,126.9893555,37.56294246
290,3010000,3010000-201-2021-00002,영업/정상,608.59,100411,서울특별시 중구 광희동1가 182-30,서울특별시 중구 을지로44길 17-7,4561,00:07:00,200540.4913,451440.6143,127.0040156,37.56524765
291,3010000,3010000-201-2021-00003,영업/정상,420.88,100042,서울특별시 중구 남산동2가 43-7 ,서울특별시 중구 소공로6길 38,4630,00:22:54,198614.5502,450677.0473,126.9822179,37.55836698
292,3010000,3010000-201-2021-00004,영업/정상,570,100860,서울특별시 중구 충무로2가 12-27 ,서울특별시 중구 명동8가길 47,5,2021-07-06 13:24:00,198841.349,451075.9012,126.984784,37.56196094
293,3010000,3010000-201-2021-00005,영업/정상,2,597.18,100860,서울특별시 중구 충무로2가 12-5 , 지하1~8층 (충무로2가),U,198898.282,451082.8393,126.9854284,37.56202352
294,3010000,3010000-201-2021-00006,영업/정상,7,114.16,100195,서울특별시 중구 을지로5가 19-29 ,4546,00:22:47,200095.7259,451681.0371,126.9989814,37.56741396
295,3010000,3010000-201-2021-00007,영업/정상,227.17,100041,서울특별시 중구 남산동1가 16-2 ,서울특별시 중구 소공로6길 13-8 (남산동1가),더로드(The Road),숙박업 기타,198516.0741,450736.3608,126.9811032,37.55890123
296,3010000,3010000-201-2021-00008,영업/정상,8,654.92,100092,서울특별시 중구 남대문로2가 9-1 , 9층~18층 (남대문로2가),I,198401.7013,451374.3122,126.9798073,37.5646489
297,3010000,3010000-201-2021-00009,영업/정상,832.9,100-809,서울특별시 중구 명동2가 25-26,서울특별시 중구 명동10길 35-9,4537,00:05:00,198677.2939,451128.6348,126.9829271,37.56243583
298,3010000,3010000-201-2022-00001,영업/정상,14,108.13,100011,서울특별시 중구 충무로1가 24-1, 3층~17층 (충무로1가),U,198562.6327,450975.1164,126.9816297,37.56105247
299,3010000,3010000-201-2022-00002,영업/정상,212.22,100876,서울특별시 중구 회현동2가 42-10,서울특별시 중구 소공로6나길 8,2층 (회현동2가),I,198483.8116,450642.3149,126.9807383,37.55805383
300,3010000,3010000-201-2022-00003,영업/정상,230.02,100310,서울특별시 중구 오장동 139-6,서울특별시 중구 동호로 339,3층 (오장동),U,200119.8394,451387.3212,126.9992543,37.56476761
301,3010000,3010000-201-2022-00004,영업/정상,9,838.83,100866,서울특별시 중구 필동1가 44-1, 지하4층~지상19층 (필동1가),I,199303.8896,451060.843,126.9900192,37.56182576
302,3010000,3010000-201-2022-00005,영업/정상,11,212.43,100011,서울특별시 중구 충무로1가 21-17,4535,00:07:00,198403.0832,451049.0124,126.9798237,37.56171799
303,3010000,3010000-201-2022-00006,영업/정상,20,543.53,100011,서울특별시 중구 충무로1가 21-17,4535,00:07:00,198403.0832,451049.0124,126.9798237,37.56171799
304,3010000,3010000-201-2023-00001,영업/정상,2559.05,100-080,서울특별시 중구 북창동 13-2,서울특별시 중구 남대문로1길 56,4526,00:02:00,197965.0735,451239.6468,126.9748657,37.56343469
305,3010000,3010000-201-2023-00002,영업/정상,537.5,100-281,서울특별시 중구 인현동1가 94-1,서울특별시 중구 마른내로 53,4549,00:09:00,199396.1834,451351.5857,126.9910635,37.5644454
306,3010000,3010000-201-2023-00003,영업/정상,394.32,100-862,서울특별시 중구 충무로4가 148-1,서울특별시 중구 퇴계로37길 14,4557,00:05:00,199397.0138,451070.7637,126.9910732,37.56191522
307,3010000,3010000-201-2023-00004,영업/정상,349.92,100-862,서울특별시 중구 충무로4가 148-1,서울특별시 중구 퇴계로37길 14,4557,00:05:00,199397.0138,451070.7637,126.9910732,37.56191522
308,3010000,3010000-201-2023-00005,영업/정상,394.32,100-862,서울특별시 중구 충무로4가 148-1,서울특별시 중구 퇴계로37길 14,4557,00:05:00,199397.0138,451070.7637,126.9910732,37.56191522
309,3010000,3010000-201-2023-00006,영업/정상,2280,100-101,서울특별시 중구 태평로1가 61-1,서울특별시 중구 세종대로 135,4519,00:02:00,197867.1566,451779.8809,126.9737558,37.56830191
310,3010000,3010000-201-2023-00007,영업/정상,30.24,100-863,서울특별시 중구 충무로4가 127-8,서울특별시 중구 충무로2길 42,4557,00:03:00,199531.4158,451105.7387,126.9925944,37.56223043
311,3010000,3010000-201-2023-00008,영업/정상,1222.7,100-101,서울특별시 중구 태평로1가 31-28,서울특별시 중구 무교로 17-27,4520,00:02:00,198012.1782,451664.0602,126.9753977,37.56725871
312,3010000,3010000-201-2023-00009,영업/정상,3724.37,100-412,서울특별시 중구 광희동2가 73,서울특별시 중구 퇴계로 337,4565,00:05:00,200721.9771,451377.4062,127.0060697,37.56467804
313,3010000,3010000-214-2003-00001,영업/정상,406.64,100871,서울특별시 중구 황학동 1591,서울특별시 중구 난계로15길 10 (황학동),우성빌,숙박업(생활),201980.0741,451845.4607,127.0203109,37.5688934
314,3010000,3010000-214-2015-00001,영업/정상,417.13,100871,서울특별시 중구 황학동 2143번지 2~7층 ,서울특별시 중구 난계로23길 11 (황학동,4573,00:59:59,201949.3904,452008.3631,127.019964,37.5703612
315,3010000,3010000-214-2016-00001,영업/정상,1261.96,100-015,서울특별시 중구 충무로5가 19-5,서울특별시 중구 퇴계로 245,4559,00:00:00,199847.3665,451150.4109,126.9961704,37.56263305
316,3010000,3010000-214-2016-00002,영업/정상,7224.48,100-015,서울특별시 중구 충무로5가 22-5 현대프레스타워 5~15층,서울특별시 중구 마른내로12길 7-4 (충무로5가,4559,00:00:00,199995.9462,451285.6007,126.997852,37.56385112
317,3010000,3010000-214-2018-00001,영업/정상,19,995.98,100196,서울특별시 중구 을지로6가 58-5 ,4561,00:40:00,200314.647,451554.0669,127.0014593,37.56626994
318,3010000,3010000-214-2018-00002,영업/정상,675.6,100871,서울특별시 중구 황학동 1776 ,서울특별시 중구 난계로21길 63 (황학동),빅 스테이,숙박업(생활),201728.2425,452007.8334,127.0174607,37.57035685
319,3010000,3010000-214-2019-00001,영업/정상,219.68,100290,서울특별시 중구 예관동 70-19번지 충무빌딩 ,서울특별시 중구 퇴계로45길 23,4559,00:21:51,199828.3826,451249.5741,126.9959555,37.56352649
320,3010000,3010000-214-2019-00003,영업/정상,18,344.01,100130,서울특별시 중구 순화동 151 ,4511,00:40:00,197462.1988,450878.2118,126.9691752,37.56017692
321,3010000,3010000-214-2019-00004,영업/정상,131.44,100400,서울특별시 중구 쌍림동 3-1번지 3~6층 ,서울특별시 중구 퇴계로 301,4560,00:40:00,200385.9858,451300.0891,127.0022667,37.5639816
322,3010000,3010000-214-2020-00002,영업/정상,112.32,100871,서울특별시 중구 황학동 1529 ,서울특별시 중구 난계로17길 30-15,4573,00:23:12,201827.3341,451956.2308,127.0185822,37.56989173
323,3010000,3010000-214-2021-00001,영업/정상,1350.84,100-281,서울특별시 중구 인현동1가 158,서울특별시 중구 충무로 24,4556,00:00:00,199345.4661,451233.3698,126.9904896,37.56338025
324,3010000,3010000-214-2021-00002,영업/정상,654.42,100-281,서울특별시 중구 인현동1가 158,서울특별시 중구 충무로 24 (인현동1가),더쉐어(The Share),숙박업(생활),199345.4661,451233.3698,126.9904896,37.56338025
325,3010000,3010000-214-2021-00004,영업/정상,837.79,100-281,서울특별시 중구 인현동1가 158,서울특별시 중구 충무로 24 (인현동1가),쉼,00:07:00,199345.4661,451233.3698,126.9904896,37.56338025
326,3010000,3010000-214-2021-00005,영업/정상,482.44,100-080,서울특별시 중구 북창동 120-2,서울특별시 중구 남대문로1길 14,4526,00:00:00,197955.2366,451040.2211,126.9747549,37.56163786
327,3010000,3010000-214-2021-00006,영업/정상,444.72,100-846,서울특별시 중구 을지로3가 5-14,서울특별시 중구 충무로9길 41,4543,00:00:00,199055.0296,451604.6814,126.9872018,37.56672545
328,3010000,3010000-214-2022-00001,영업/정상,6689.45,100-014,서울특별시 중구 충무로4가 334,서울특별시 중구 창경궁로1길 14,4558,00:00:00,199711.2056,451182.2241,126.9946292,37.56291964
329,3010000,3010000-214-2022-00003,영업/정상,367.7,100-864,서울특별시 중구 태평로2가 68-6,서울특별시 중구 남대문로1길 43,4526,00:00:00,197916.1729,451198.4543,126.9743123,37.56306344
330,3010000,3010000-214-2023-00001,영업/정상,1331.36,100-310,서울특별시 중구 오장동 139-1,서울특별시 중구 동호로 347,4547,00:00:00,200112.1273,451452.2852,126.999167,37.56535293
331,3010000,3010000-214-2023-00002,영업/정상,2808.85,100-093,서울특별시 중구 남대문로3가 94,서울특별시 중구 남대문로 27 (남대문로3가),더스테이클래식호텔,숙박업(생활),198037.3385,451010.5466,126.9756842,37.56137068
332,3010000,3010000-214-2023-00003,영업/정상,4106.12,100-866,서울특별시 중구 필동1가 43-1,서울특별시 중구 충무로 3,4554,00:05:00,199297.8766,451025.5166,126.9899512,37.56150747
333,3010000,3010000-214-2023-00004,영업/정상,2386.42,100-866,서울특별시 중구 필동1가 43-1,서울특별시 중구 충무로 3,4554,00:05:00,199297.8766,451025.5166,126.9899512,37.56150747
334,3010000,3010000-214-2023-00005,영업/정상,650.93,100-400,서울특별시 중구 쌍림동 25-16,서울특별시 중구 퇴계로53길 8,4560,00:05:00,200281.8717,451298.4582,127.0010883,37.56396694
335,3010000,3010000-214-2023-00007,영업/정상,428.89,100-197,서울특별시 중구 을지로7가 81-2,서울특별시 중구 퇴계로63길 10,4565,00:00:00,200698.7749,451404.813,127.0058071,37.56492499
336,3010000,3010000-214-2023-00008,영업/정상,33.6,100-197,서울특별시 중구 을지로7가 52,서울특별시 중구 퇴계로67길 13-2,4565,00:04:00,200735.5259,451431.5483,127.0062231,37.56516585
